velocity_north,velocity_east,velocity_down,roll,pitch,yaw,latitude,longitude,altitude,seq_num,timestamp_arrival.sec,timestamp_arrival.nsec,timestamp_valid.sec,timestamp_valid.nsec
0.00019585,-0.003212896,-0.003990803,0.017629938,0.243711645,0.930003763,0.686675761,-1.501148512,187.0394146,87024,1632965274,210495233,1632965274,200000047
-0.000408562,-0.002613317,-0.00372259,0.018405702,0.243682938,0.930371098,0.68667576,-1.501148512,187.0445361,87025,1632965274,405790805,1632965274,400000095
0.000295122,-0.003073139,-0.004485571,0.017770056,0.243704198,0.930095535,0.68667576,-1.501148513,187.049719,87026,1632965274,607761621,1632965274,599999904
-0.001414255,-0.00245816,-0.006441099,0.018138919,0.243715996,0.930289756,0.68667576,-1.501148512,187.0548971,87027,1632965274,804974555,1632965274,799999952
-0.001043373,-0.003268085,-0.006920007,0.017829568,0.24372003,0.930149793,0.68667576,-1.501148512,187.0600596,87028,1632965275,40722370,1632965275,0
6.29E-06,-0.002366853,-0.005379271,0.018063342,0.24369907,0.930226334,0.68667576,-1.501148512,187.0600263,87029,1632965275,208860874,1632965275,200000047
-0.000477562,-0.001390201,-0.005365204,0.017834316,0.243722135,0.930116189,0.68667576,-1.501148511,187.0591376,87030,1632965275,411072969,1632965275,400000095
-0.000704011,-0.001807318,-0.005702936,0.017858948,0.243726688,0.930159234,0.68667576,-1.501148511,187.0582595,87031,1632965275,608476161,1632965275,599999904
3.14E-05,-0.000515025,-0.004843666,0.018013074,0.243714956,0.930180852,0.68667576,-1.50114851,187.0573952,87032,1632965275,806541204,1632965275,799999952
0.001320065,0.00018439,-0.004310684,0.017899648,0.243692013,0.930105036,0.68667576,-1.50114851,187.0566453,87033,1632965276,42223930,1632965276,0
0.000910912,-3.11E-05,-0.004597131,0.01815928,0.243671121,0.930255558,0.686675759,-1.501148509,187.0584194,87034,1632965276,209153890,1632965276,200000047
-0.001495402,-0.00078647,-0.006918267,0.017446955,0.24370818,0.929908925,0.686675759,-1.501148509,187.0607153,87035,1632965276,408531665,1632965276,400000095
-0.00271058,0.000429862,-0.007844248,0.018188692,0.243680741,0.930203001,0.686675758,-1.501148508,187.0629809,87036,1632965276,608102321,1632965276,599999904
-0.000384527,-0.001409748,-0.00625782,0.017623405,0.243707161,0.929895838,0.686675758,-1.501148508,187.0653826,87037,1632965276,805537700,1632965276,799999952
-0.004642717,0.00290245,-0.00795332,0.018261269,0.243685857,0.930296127,0.686675757,-1.501148507,187.0677921,87038,1632965277,49953222,1632965277,0
-0.001949529,-2.13E-05,-0.006944654,0.017343889,0.243734213,0.929904655,0.686675757,-1.501148507,187.066928,87039,1632965277,208806276,1632965277,200000047
-0.007598414,0.005841458,-0.006895526,0.01813515,0.243697204,0.930288226,0.686675756,-1.501148506,187.0654595,87040,1632965277,411745786,1632965277,400000095
7.14E-05,-0.001134552,-0.006739438,0.017991539,0.243708968,0.930177677,0.686675756,-1.501148506,187.0640469,87041,1632965277,605117082,1632965277,599999904
-0.005546255,0.004171969,-0.006010681,0.018103777,0.243722692,0.930228987,0.686675756,-1.501148505,187.0625783,87042,1632965277,806874513,1632965277,799999952
0.000171892,-0.000806084,-0.006195025,0.018047769,0.24371624,0.930181409,0.686675756,-1.501148505,187.0611316,87043,1632965278,43307065,1632965278,0
-0.005280077,0.00425506,-0.005369633,0.018052987,0.243699108,0.930173651,0.686675755,-1.501148505,187.0584106,87044,1632965278,212264060,1632965278,200000047
-0.000405369,-2.17E-06,-0.005499125,0.018150205,0.243715882,0.930241012,0.686675755,-1.501148504,187.0553295,87045,1632965278,407816648,1632965278,400000095
-0.005192342,0.004707475,-0.004844148,0.017982636,0.243705962,0.9302047,0.686675755,-1.501148504,187.0523831,87046,1632965278,607224702,1632965278,599999904
-0.000119357,0.001059243,-0.004086393,0.018101995,0.243724404,0.930270855,0.686675755,-1.501148503,187.0494621,87047,1632965278,806762456,1632965278,799999952
-0.005827008,0.004502935,-0.003799443,0.017946921,0.243727123,0.930233614,0.686675755,-1.501148503,187.0465789,87048,1632965279,38939952,1632965279,0
-0.000797001,0.000498646,-0.004044469,0.01810503,0.243713884,0.930277667,0.686675755,-1.501148502,187.0471267,87049,1632965279,209964513,1632965279,200000047
-0.004685896,0.003484781,-0.003430281,0.01794217,0.243718868,0.93019214,0.686675755,-1.501148502,187.0483526,87050,1632965279,408058643,1632965279,400000095
-0.00088725,0.003256194,-0.003357815,0.01776554,0.243726466,0.930077907,0.686675755,-1.501148502,187.049604,87051,1632965279,605969190,1632965279,599999904
-0.003794011,0.005388477,-0.006371105,0.018143038,0.243690494,0.930217094,0.686675755,-1.501148501,187.050828,87052,1632965279,808839559,1632965279,799999952
0.001497305,0.001268655,-0.005608201,0.017781428,0.243707649,0.930051915,0.686675755,-1.501148501,187.0521308,87053,1632965280,41161775,1632965280,0
-0.00197062,0.004150085,-0.004128932,0.018124876,0.24370376,0.930216195,0.686675755,-1.5011485,187.0534979,87054,1632965280,212088823,1632965280,200000047
0.000148743,0.002331976,-0.005301483,0.017921832,0.243701705,0.930146666,0.686675755,-1.501148499,187.054895,87055,1632965280,406928062,1632965280,400000095
-0.002950106,0.006317563,-0.00654219,0.017978649,0.243687662,0.930171557,0.686675754,-1.501148498,187.0563336,87056,1632965280,607237577,1632965280,599999904
-0.000200683,0.004846257,-0.00601635,0.01804571,0.243686681,0.930214535,0.686675754,-1.501148498,187.0578406,87057,1632965280,808028936,1632965280,799999952
-0.003655071,0.007175475,-0.005455106,0.017899977,0.243705428,0.930121263,0.686675754,-1.501148497,187.0594307,87058,1632965281,41036128,1632965281,0
-0.000980838,0.003988412,-0.005491246,0.018048138,0.243701762,0.930181101,0.686675753,-1.501148497,187.0586325,87059,1632965281,213196039,1632965281,200000047
-0.002812436,0.005059747,-0.00462783,0.01779801,0.243701906,0.93004014,0.686675753,-1.501148497,187.0574793,87060,1632965281,405491352,1632965281,400000095
0.000195478,0.003019077,-0.005314894,0.018057107,0.243708136,0.930143322,0.686675753,-1.501148497,187.0562567,87061,1632965281,609719514,1632965281,599999904
-0.002007448,0.002198726,-0.003344144,0.017945726,0.243711058,0.930179315,0.686675753,-1.501148497,187.055048,87062,1632965281,806765317,1632965281,799999952
-0.000821988,0.001941164,-0.00282045,0.017943919,0.24379101,0.930287068,0.686675752,-1.501148497,187.053663,87063,1632965282,48665761,1632965282,0
-3.79E-07,0.003769504,-0.004301495,0.018047115,0.243816599,0.930335603,0.686675752,-1.501148496,187.0538894,87064,1632965282,208777904,1632965282,200000047
-0.002305279,0.003435095,-0.002303437,0.018027648,0.243829816,0.930401963,0.686675752,-1.501148496,187.0544059,87065,1632965282,412930727,1632965282,400000095
-0.00375719,-0.000153374,-0.001628819,0.018025122,0.243811656,0.93041057,0.686675751,-1.501148496,187.0549211,87066,1632965282,607065916,1632965282,599999904
-0.004538427,-0.001846248,-0.002888459,0.01802759,0.24378217,0.930278909,0.686675751,-1.501148496,187.0553458,87067,1632965282,810149192,1632965282,799999952
-0.00409731,-0.000339802,-0.001391057,0.018088791,0.243777211,0.930253747,0.686675751,-1.501148495,187.0556886,87068,1632965283,42808294,1632965283,0
-0.001646614,-0.001554733,-0.001039546,0.018121016,0.243779484,0.930236423,0.686675751,-1.501148495,187.0577277,87069,1632965283,207377672,1632965283,200000047
-0.001437954,-0.000864694,-0.001446633,0.018101656,0.243787878,0.930244984,0.686675751,-1.501148495,187.0600417,87070,1632965283,406129360,1632965283,400000095
-0.000486887,-0.002916136,-0.001921277,0.01800737,0.243776839,0.930199767,0.686675751,-1.501148496,187.0622832,87071,1632965283,606830596,1632965283,599999904
0.001024115,-0.001115986,-0.000960372,0.018036192,0.24378715,0.93019438,0.686675751,-1.501148496,187.0644809,87072,1632965283,807612419,1632965283,799999952
0.000361067,-0.004873347,-0.001208082,0.018037761,0.243755626,0.930193856,0.686675752,-1.501148496,187.0665799,87073,1632965284,43608903,1632965284,0
0.00083333,-0.00278021,-0.001311759,0.017580893,0.243815989,0.930110304,0.686675751,-1.501148495,187.0694047,87074,1632965284,211298704,1632965284,200000047
0.003594257,-0.000895982,-0.000616565,0.017588513,0.243828647,0.930105199,0.686675751,-1.501148494,187.0723015,87075,1632965284,411253452,1632965284,400000095
-0.001123013,0.002920732,-0.000948195,0.017700262,0.243790389,0.930167465,0.686675751,-1.501148493,187.0751598,87076,1632965284,606373071,1632965284,599999904
0.003389706,-0.000443988,-0.001101108,0.017865234,0.243774152,0.930250543,0.686675751,-1.501148493,187.078011,87077,1632965284,805567979,1632965284,799999952
-0.003097386,0.006501542,-0.002200352,0.017889075,0.243774743,0.930219789,0.68667575,-1.501148492,187.0808481,87078,1632965285,40448427,1632965285,0
0.002763898,0.001649001,-0.000990205,0.018173802,0.243776571,0.930387486,0.68667575,-1.501148491,187.0804077,87079,1632965285,208194971,1632965285,200000047
-0.002163987,0.003332153,9.78E-05,0.017842815,0.243769312,0.930177438,0.686675749,-1.501148491,187.0794574,87080,1632965285,405984163,1632965285,400000095
0.001122398,0.001815001,0.000199786,0.017949258,0.243769061,0.930290414,0.686675749,-1.501148491,187.0784304,87081,1632965285,607756376,1632965285,599999904
-0.002296485,0.002243767,0.000433177,0.018054633,0.243783812,0.930292369,0.686675748,-1.50114849,187.0773779,87082,1632965285,813461303,1632965285,799999952
0.001455846,0.000193563,0.000235565,0.017777247,0.243787687,0.930151197,0.686675748,-1.50114849,187.0762587,87083,1632965286,39826154,1632965286,0
-0.000182289,0.002276978,0.001694519,0.017242937,0.243845917,0.929813904,0.686675748,-1.50114849,187.0759802,87084,1632965286,209163427,1632965286,200000047
-0.001579546,0.002248576,0.001166265,0.017466524,0.24382138,0.929867785,0.686675748,-1.50114849,187.0758755,87085,1632965286,407780170,1632965286,400000095
0.002121797,-0.004283987,0.000582003,0.017159888,0.243824623,0.929690766,0.686675749,-1.50114849,187.0756769,87086,1632965286,606951713,1632965286,599999904
-0.000605374,-0.00272338,0.002259216,0.017111912,0.243775311,0.929570384,0.686675749,-1.50114849,187.0753421,87087,1632965286,817204236,1632965286,799999952
0.004129209,-0.003395398,0.002463481,0.016911091,0.243816783,0.92951018,0.686675749,-1.50114849,187.0750161,87088,1632965287,44651031,1632965287,0
0.003092406,-0.001348981,0.001846601,0.016689204,0.243829983,0.929417163,0.686675749,-1.50114849,187.078842,87089,1632965287,209875345,1632965287,200000047
0.00268395,-0.000988148,9.20E-05,0.016604578,0.243856248,0.929510645,0.686675748,-1.50114849,187.0832678,87090,1632965287,410890102,1632965287,400000095
-0.003343968,-0.000321128,0.002153728,0.016894489,0.243847035,0.929594099,0.686675747,-1.501148489,187.0876938,87091,1632965287,607252597,1632965287,599999904
-0.003913444,-0.002434112,0.000439324,0.017140409,0.243791929,0.929617188,0.686675747,-1.501148489,187.0920779,87092,1632965287,810903310,1632965287,799999952
-0.003985914,-0.000589397,0.000922505,0.017025417,0.243793777,0.92957565,0.686675746,-1.501148489,187.0964457,87093,1632965288,41825771,1632965288,0
-0.002541663,-0.001565096,-0.00083531,0.017412559,0.243803954,0.929798436,0.686675746,-1.501148488,187.0970467,87094,1632965288,209792852,1632965288,200000047
-0.000430803,-0.00348202,-0.001138126,0.017095049,0.243819977,0.929636684,0.686675746,-1.501148489,187.0969776,87095,1632965288,409273624,1632965288,400000095
-0.001441434,-0.002309924,0.002325168,0.017432838,0.243807738,0.929843177,0.686675746,-1.501148489,187.0968917,87096,1632965288,606899976,1632965288,599999904
0.000191362,-0.004250257,0.0008183,0.017043266,0.243846542,0.929704045,0.686675746,-1.501148489,187.0968349,87097,1632965288,810706853,1632965288,799999952
-0.001403364,-0.002693307,0.002523454,0.017125912,0.24383078,0.929814128,0.686675746,-1.501148489,187.0967034,87098,1632965289,39702653,1632965289,0
0.004222473,-0.001908875,0.000960156,0.016659566,0.243877862,0.929480973,0.686675746,-1.501148488,187.0986907,87099,1632965289,210674762,1632965289,200000047
-0.000986638,0.001406878,0.005074557,0.016439595,0.243840024,0.929258568,0.686675746,-1.501148488,187.1009626,87100,1632965289,411764144,1632965289,400000095
0.000449823,-0.000207923,0.000136051,0.016676452,0.243845228,0.929370597,0.686675746,-1.501148487,187.1032587,87101,1632965289,606119871,1632965289,599999904
-0.001669436,-0.002547096,0.001152984,0.015617106,0.243865403,0.928976688,0.686675746,-1.501148487,187.1052905,87102,1632965289,806303262,1632965289,799999952
-0.001470625,0.004627174,0.003689697,0.017080155,0.243829556,0.9295746,0.686675745,-1.501148486,187.1074149,87103,1632965290,44626951,1632965290,0
0.009706858,0.000233616,-0.000486581,0.015911224,0.243855504,0.929015977,0.686675745,-1.501148486,187.1050393,87104,1632965290,210309743,1632965290,200000047
-0.005945661,0.005868459,0.005393777,0.015985111,0.243829906,0.929023341,0.686675745,-1.501148486,187.1019087,87105,1632965290,409144878,1632965290,400000095
0.003470637,-0.000532399,0.002452984,0.017149424,0.243864113,0.929708662,0.686675745,-1.501148486,187.0987748,87106,1632965290,605325222,1632965290,599999904
-0.000922919,0.001920546,0.003063187,0.016695092,0.243823044,0.929272004,0.686675745,-1.501148486,187.0955779,87107,1632965290,812389373,1632965290,799999952
0.000397679,0.002632429,0.006528673,0.017485024,0.24378479,0.929656817,0.686675745,-1.501148486,187.0923848,87108,1632965291,40737628,1632965291,0
0.011384851,-0.009128014,0.005330151,0.016837321,0.243847324,0.929415677,0.686675745,-1.501148486,187.0905605,87109,1632965291,212207317,1632965291,200000047
-0.002593202,0.001088665,0.005346329,0.015555277,0.243850047,0.928668558,0.686675745,-1.501148486,187.0889574,87110,1632965291,415100574,1632965291,400000095
-0.000561095,-0.000574967,0.006551868,0.016458711,0.24379548,0.929091837,0.686675745,-1.501148485,187.0872887,87111,1632965291,612903118,1632965291,599999904
0.004286088,-0.006262901,0.0067948,0.016935437,0.243768447,0.929274075,0.686675744,-1.501148485,187.0855053,87112,1632965291,806618213,1632965291,799999952
0.015935178,-0.011692468,0.007556684,0.013232969,0.243822742,0.927217296,0.686675745,-1.501148485,187.0835806,87113,1632965292,49207925,1632965292,0
-0.014897872,0.013778792,0.009173282,0.014413317,0.243769811,0.927793838,0.686675744,-1.501148485,187.0832352,87114,1632965292,209652185,1632965292,200000047
0.009890333,-0.007858978,0.008122894,0.014576874,0.243807593,0.927986936,0.686675744,-1.501148485,187.0831094,87115,1632965292,416609287,1632965292,400000095
-0.013941335,0.00565972,0.009125839,0.015061614,0.243780235,0.928146452,0.686675743,-1.501148486,187.0829823,87116,1632965292,607109785,1632965292,599999904
0.004578401,-0.00941081,0.009598347,0.015796701,0.243752286,0.928567454,0.686675743,-1.501148486,187.0827906,87117,1632965292,811847925,1632965292,799999952
0.008310286,-0.015352422,0.008421175,0.014350723,0.243835182,0.927950194,0.686675742,-1.501148486,187.0823384,87118,1632965293,42122125,1632965293,0
-0.009689923,0.004458917,0.010700955,0.011934883,0.243866952,0.926958126,0.686675742,-1.501148486,187.0804788,87119,1632965293,210196256,1632965293,200000047
-0.006879649,-0.003733429,0.011961085,0.017170934,0.243749591,0.929457213,0.686675742,-1.501148485,187.0780748,87120,1632965293,412868499,1632965293,400000095
0.019937072,-0.019454484,0.005693927,0.01216736,0.24384914,0.926614714,0.686675742,-1.501148485,187.0756796,87121,1632965293,605618476,1632965293,599999904
-0.017104563,0.014415818,0.012267207,0.012767103,0.24378818,0.926836509,0.686675742,-1.501148484,187.0732385,87122,1632965293,807123899,1632965293,799999952
-0.023232194,0.013825172,0.010744145,0.016957354,0.243695895,0.929411404,0.686675741,-1.501148483,187.0707594,87123,1632965294,43338537,1632965294,0
0.005846252,-0.009311226,0.01064873,0.017947689,0.243696495,0.929999979,0.686675741,-1.501148483,187.0712485,87124,1632965294,209567546,1632965294,200000047
-0.007823579,0.00062981,0.00912593,0.017007345,0.243699912,0.929398166,0.686675741,-1.501148482,187.072188,87125,1632965294,406908035,1632965294,400000095
-0.013278711,0.004294557,0.013431522,0.018225987,0.24352768,0.930072348,0.686675741,-1.501148482,187.0729311,87126,1632965294,608061313,1632965294,599999904
0.007753265,-0.008378977,0.00982655,0.017643982,0.243607224,0.929807303,0.686675741,-1.501148482,187.0737654,87127,1632965294,806158781,1632965294,799999952
-0.011883123,0.008242441,0.011070684,0.018077047,0.243602903,0.930070434,0.686675741,-1.501148481,187.0744212,87128,1632965295,44352054,1632965295,0
0.016846506,-0.012527991,0.010041587,0.016625796,0.243655271,0.92923615,0.686675741,-1.501148481,187.07617,87129,1632965295,209345102,1632965295,200000047
-0.013748532,0.01104396,0.012115579,0.016055385,0.243724747,0.928997829,0.686675741,-1.501148481,187.0780469,87130,1632965295,412669420,1632965295,400000095
-0.007070622,0.002701251,0.009877605,0.018283503,0.243610326,0.930204243,0.686675741,-1.50114848,187.0799513,87131,1632965295,606962919,1632965295,599999904
0.00141795,-0.00206493,0.007983445,0.017319102,0.243609004,0.929713804,0.686675741,-1.501148479,187.081857,87132,1632965295,805377006,1632965295,799999952
-0.004595828,0.004550679,0.009445383,0.018025396,0.243582303,0.930047977,0.68667574,-1.501148479,187.0835621,87133,1632965296,44689655,1632965296,0
0.001727584,0.00043544,0.008330446,0.017432921,0.243612085,0.929800659,0.68667574,-1.501148479,187.0870233,87134,1632965296,210531234,1632965296,200000047
-0.003548881,0.005909475,0.007337265,0.017901386,0.243584359,0.930013654,0.68667574,-1.501148478,187.0906698,87135,1632965296,407386541,1632965296,400000095
0.002978386,0.00225217,0.006667749,0.017455046,0.24358854,0.929850873,0.68667574,-1.501148478,187.0943643,87136,1632965296,611079931,1632965296,599999904
-0.003567308,0.006945076,0.005929745,0.017794322,0.243576805,0.930013285,0.68667574,-1.501148477,187.097985,87137,1632965296,812460899,1632965296,799999952
0.00383592,0.005887065,0.005540768,0.017616406,0.243549653,0.929990967,0.68667574,-1.501148477,187.1016339,87138,1632965297,49190521,1632965297,0
0.002156255,0.011770181,0.005812413,0.017698743,0.243596867,0.930107059,0.68667574,-1.501148477,187.1050415,87139,1632965297,207283735,1632965297,200000047
0.003463267,0.005481872,0.004340277,0.017529984,0.243580098,0.930014307,0.68667574,-1.501148477,187.1083062,87140,1632965297,407306909,1632965297,400000095
-6.68E-05,0.006341783,0.005202504,0.017699948,0.243559784,0.930014801,0.68667574,-1.501148477,187.111536,87141,1632965297,608439445,1632965297,599999904
0.002151444,0.004711049,0.003559931,0.017495318,0.243573817,0.929881033,0.68667574,-1.501148477,187.1147491,87142,1632965297,806381940,1632965297,799999952
-0.001311004,0.005895533,0.003060667,0.01775818,0.243561693,0.929945633,0.68667574,-1.501148477,187.117915,87143,1632965298,40648937,1632965298,0
0.002510371,0.001953551,0.003130439,0.017695633,0.243598283,0.929953645,0.68667574,-1.501148477,187.118149,87144,1632965298,209142684,1632965298,200000047
0.001983421,0.00826876,0.003781506,0.017638523,0.24362372,0.929987442,0.686675739,-1.501148476,187.117814,87145,1632965298,406344175,1632965298,400000095
0.001652144,0.003593396,0.0041501,0.01769232,0.243622921,0.930044046,0.686675739,-1.501148476,187.1174459,87146,1632965298,610190153,1632965298,599999904
0.000711549,0.0058946,0.004474123,0.017720873,0.243670679,0.930145767,0.686675739,-1.501148475,187.1169373,87147,1632965298,811056852,1632965298,799999952
-7.49E-05,0.003512454,0.004425721,0.017361268,0.243657801,0.93000253,0.686675738,-1.501148475,187.1164438,87148,1632965299,39242029,1632965299,0
-0.003924753,0.003360189,0.003476779,0.017357596,0.243718824,0.930002844,0.686675738,-1.501148475,187.1188232,87149,1632965299,211131811,1632965299,200000047
-0.001825558,0.001831971,0.004402482,0.017720224,0.243730206,0.930087628,0.686675737,-1.501148476,187.1218056,87150,1632965299,407005071,1632965299,400000095
-0.001596607,-0.000720176,0.002791491,0.017028648,0.243867611,0.930140488,0.686675737,-1.501148477,187.1248404,87151,1632965299,612050056,1632965299,599999904
-0.004401939,0.002369287,0.003407503,0.017013241,0.243841268,0.929922856,0.686675736,-1.501148477,187.1277039,87152,1632965299,806403875,1632965299,799999952
-0.001699989,-0.001711217,0.004345784,0.017768739,0.24381306,0.930221868,0.686675736,-1.501148478,187.1304477,87153,1632965300,42269229,1632965300,0
-0.001105794,-0.002819889,0.002973553,0.016791205,0.243897062,0.929958515,0.686675736,-1.501148478,187.1313731,87154,1632965300,213121414,1632965300,200000047
-0.005661067,-0.000975257,0.004771084,0.01732457,0.243847606,0.930099147,0.686675735,-1.501148478,187.13178,87155,1632965300,407434940,1632965300,400000095
-0.00805548,0.002634696,0.004542727,0.018274591,0.243670936,0.930191197,0.686675735,-1.501148478,187.1321835,87156,1632965300,610440731,1632965300,599999904
0.001169264,-0.006271622,0.003740932,0.018065078,0.243656037,0.930092154,0.686675735,-1.501148478,187.1325587,87157,1632965300,805457592,1632965300,799999952
-0.005954201,0.000864646,0.004877026,0.01787237,0.243677298,0.92999497,0.686675735,-1.501148478,187.1328615,87158,1632965301,43600082,1632965301,0
0.000224497,-0.004735684,0.005095277,0.017578474,0.243667413,0.929934556,0.686675735,-1.501148478,187.1346404,87159,1632965301,212559700,1632965301,200000047
-0.004632234,-0.000722401,0.004224866,0.017853256,0.243663206,0.930050807,0.686675734,-1.501148478,187.1365473,87160,1632965301,408220291,1632965301,400000095
-0.000161682,-0.004170237,0.003967508,0.017581155,0.243667842,0.929922279,0.686675734,-1.501148478,187.1383955,87161,1632965301,606981039,1632965301,599999904
-0.003819263,-0.001414201,0.004234465,0.017803991,0.243667629,0.930016944,0.686675734,-1.501148478,187.1401826,87162,1632965301,805055141,1632965301,799999952
-0.001594438,-0.002413067,0.003581571,0.017750047,0.24367017,0.929998977,0.686675734,-1.501148478,187.1419386,87163,1632965302,48805952,1632965302,0
-0.003475985,-0.000746811,0.004034831,0.017792023,0.243626386,0.929987561,0.686675734,-1.501148478,187.1388656,87164,1632965302,212888240,1632965302,200000047
4.51E-05,-0.002289848,0.00386608,0.017776763,0.243630384,0.929979235,0.686675735,-1.501148477,187.1349956,87165,1632965302,404966354,1632965302,400000095
-0.001822875,0.000138322,0.004377485,0.017732162,0.243635198,0.929949954,0.686675735,-1.501148477,187.1311044,87166,1632965302,607069253,1632965302,599999904
0.00127106,-0.00195878,0.005052214,0.017803752,0.24362464,0.929968662,0.686675735,-1.501148476,187.1272066,87167,1632965302,813169240,1632965302,799999952
-0.000749876,0.000990812,0.005246651,0.017739596,0.243615761,0.92997809,0.686675735,-1.501148476,187.1232709,87168,1632965303,42798995,1632965303,0
-0.000196544,-0.001609544,0.004480959,0.017816871,0.243629644,0.929984337,0.686675735,-1.501148476,187.1246478,87169,1632965303,212303876,1632965303,200000047
-0.002073402,-0.001272604,0.004080572,0.017680034,0.243631814,0.929927331,0.686675735,-1.501148477,187.1268831,87170,1632965303,407768249,1632965303,400000095
-5.54E-05,-0.004337539,0.004641093,0.017880893,0.243634366,0.92998132,0.686675734,-1.501148477,187.1290814,87171,1632965303,606402158,1632965303,599999904
-0.00267069,-0.003434881,0.004555222,0.017611168,0.243635906,0.929872705,0.686675734,-1.501148477,187.1312106,87172,1632965303,807977199,1632965303,799999952
-0.00151744,-0.004720566,0.002608364,0.017813867,0.243650645,0.929964855,0.686675734,-1.501148478,187.1334953,87173,1632965304,42736053,1632965304,0
-0.00326834,-0.004252879,0.002627921,0.01776008,0.2436404,0.929998993,0.686675734,-1.501148477,187.1297787,87174,1632965304,209832191,1632965304,200000047
-0.002697711,-0.003770071,0.004262119,0.017651393,0.243599528,0.929812073,0.686675734,-1.501148476,187.1250819,87175,1632965304,410175085,1632965304,400000095
-0.001765835,-0.002374626,0.006126456,0.01794736,0.243610998,0.929961404,0.686675734,-1.501148476,187.1202948,87176,1632965304,606142044,1632965304,599999904
-0.001875243,-0.001209637,0.007302496,0.017669753,0.243613969,0.929893049,0.686675734,-1.501148475,187.1155423,87177,1632965304,807404041,1632965304,799999952
0.000740155,-0.002176036,0.00781652,0.018033842,0.243569218,0.930056455,0.686675734,-1.501148475,187.1105846,87178,1632965305,44666528,1632965305,0
-0.000705167,-3.36E-06,0.00745607,0.017642152,0.243589196,0.929903762,0.686675734,-1.501148474,187.11555,87179,1632965305,210057020,1632965305,200000047
-0.000136176,-0.000293965,0.005431846,0.017844415,0.243572389,0.930038353,0.686675733,-1.501148473,187.1220596,87180,1632965305,406837224,1632965305,400000095
-0.002158683,0.001241021,0.004196467,0.017596619,0.2435604,0.929880655,0.686675733,-1.501148473,187.1285666,87181,1632965305,607048749,1632965305,599999904
-0.001325329,0.001844185,0.00389536,0.018181413,0.24355171,0.930153646,0.686675733,-1.501148472,187.134998,87182,1632965305,811850309,1632965305,799999952
-0.001285613,0.002798585,0.002598586,0.01765083,0.243562422,0.929906435,0.686675733,-1.501148472,187.1414953,87183,1632965306,43915033,1632965306,0
-0.002332333,0.003665985,0.001866416,0.017995395,0.243570704,0.93010042,0.686675732,-1.501148472,187.1422897,87184,1632965306,211696863,1632965306,200000047
-0.000865331,0.001458787,0.002604488,0.017610346,0.24361174,0.929932666,0.686675732,-1.501148472,187.142126,87185,1632965306,413139343,1632965306,400000095
-0.003391266,0.003425672,0.002723121,0.01799775,0.243593569,0.930100172,0.686675732,-1.501148472,187.1419507,87186,1632965306,606632947,1632965306,599999904
0.000181219,0.000532636,0.002521613,0.017671252,0.24360688,0.929959612,0.686675732,-1.501148473,187.1417873,87187,1632965306,809845924,1632965306,799999952
-0.00352867,0.002276109,0.002841069,0.017964081,0.243620998,0.930110401,0.686675732,-1.501148473,187.1416063,87188,1632965307,47499656,1632965307,0
0.00070565,3.48E-08,0.003170414,0.017740088,0.24361389,0.930007573,0.686675732,-1.501148473,187.1379743,87189,1632965307,209202289,1632965307,200000047
-0.003606522,0.004284014,0.004629529,0.017876361,0.243639311,0.930155343,0.686675731,-1.501148472,187.133868,87190,1632965307,409977912,1632965307,400000095
-0.000702644,0.003064897,0.004779514,0.017821282,0.24363041,0.93015472,0.686675731,-1.501148471,187.1295469,87191,1632965307,612481355,1632965307,599999904
-0.0044125,0.004305344,0.005533482,0.017823346,0.243615144,0.930108843,0.686675731,-1.501148471,187.1253411,87192,1632965307,806261062,1632965307,799999952
-0.00172209,0.003656725,0.006029505,0.017814747,0.243616918,0.930032864,0.686675731,-1.50114847,187.1211229,87193,1632965308,42918920,1632965308,0
-0.000704063,-0.000916025,0.005069116,0.017742,0.243618284,0.929982883,0.686675731,-1.50114847,187.1218534,87194,1632965308,207668781,1632965308,200000047
-0.005413869,0.007727275,0.007030621,0.017518188,0.243582438,0.92980177,0.686675731,-1.50114847,187.1232829,87195,1632965308,407518625,1632965308,400000095
0.005462102,0.000585535,0.004966529,0.017781151,0.243596623,0.929990127,0.686675731,-1.501148471,187.1248718,87196,1632965308,605864048,1632965308,599999904
-0.000977487,0.00326738,0.005242432,0.017618989,0.243601547,0.929948154,0.686675732,-1.501148471,187.1263982,87197,1632965308,806382179,1632965308,799999952
-0.001281031,0.002161953,0.0043532,0.017655414,0.243609373,0.930016697,0.686675732,-1.501148471,187.1279168,87198,1632965309,40028572,1632965309,0
0.001316415,0.001461087,0.004106062,0.01772389,0.24363949,0.930077936,0.686675732,-1.501148471,187.1261147,87199,1632965309,206926822,1632965309,200000047
0.002403354,0.001925973,0.005282003,0.01771474,0.243621537,0.930013934,0.686675732,-1.501148471,187.1236967,87200,1632965309,413199424,1632965309,400000095
0.002262182,0.001847915,0.006467172,0.017591101,0.243624006,0.929981353,0.686675732,-1.501148471,187.121248,87201,1632965309,606668949,1632965309,599999904
0.00310089,0.002193414,0.005751996,0.017807076,0.24363343,0.930114834,0.686675732,-1.501148471,187.1188321,87202,1632965309,806998729,1632965309,799999952
0.005372949,0.000938675,0.006588519,0.01770081,0.24362882,0.929965168,0.686675732,-1.501148471,187.1162511,87203,1632965310,44385671,1632965310,0
0.00190492,0.002234962,0.007646271,0.017672045,0.243613371,0.929967921,0.686675732,-1.501148471,187.1192291,87204,1632965310,210487365,1632965310,200000047
0.004660792,0.000249091,0.005767363,0.017516646,0.243625178,0.929931025,0.686675732,-1.50114847,187.1230986,87205,1632965310,406248092,1632965310,400000095
-0.001221987,0.00477512,0.004395026,0.017478411,0.243641146,0.929883376,0.686675731,-1.50114847,187.1269126,87206,1632965310,607541084,1632965310,599999904
0.004604488,0.001299994,0.005065227,0.017844017,0.243627924,0.930049391,0.686675731,-1.50114847,187.1307122,87207,1632965310,808836460,1632965310,799999952
-0.003599326,0.006057617,0.004826429,0.017798823,0.243636123,0.930068149,0.68667573,-1.50114847,187.1345927,87208,1632965311,40119409,1632965311,0
0.0050211,0.000513,0.007762917,0.01813357,0.243630359,0.930221394,0.68667573,-1.50114847,187.1361183,87209,1632965311,210076332,1632965311,200000047
-0.000441829,0.002886334,0.004312605,0.017260684,0.243645656,0.929793413,0.686675731,-1.50114847,187.1372542,87210,1632965311,406477689,1632965311,400000095
0.004163382,-0.00048155,0.003549411,0.018002172,0.243719377,0.930224316,0.68667573,-1.501148471,187.1383366,87211,1632965311,610812425,1632965311,599999904
0.000189512,0.001608617,0.004426372,0.017613382,0.243717276,0.929953693,0.686675731,-1.501148471,187.1394765,87212,1632965311,805918693,1632965311,799999952
0.001985531,4.45E-05,0.00352921,0.018201848,0.243644969,0.930200734,0.686675731,-1.501148471,187.1405686,87213,1632965312,51529169,1632965312,0
0.009112439,-0.003064273,0.005809077,0.017924764,0.243642409,0.929990806,0.686675731,-1.501148472,187.1421337,87214,1632965312,209263563,1632965312,200000047
0.002111882,0.001470593,0.004628539,0.01770542,0.243626237,0.929931489,0.686675732,-1.501148472,187.1438333,87215,1632965312,406976938,1632965312,400000095
0.011519083,-0.002724748,0.004457736,0.017956848,0.243570312,0.930046147,0.686675733,-1.501148472,187.1455704,87216,1632965312,611813068,1632965312,599999904
0.00385514,0.00276819,0.006052977,0.017710731,0.243562569,0.929946251,0.686675733,-1.501148472,187.147218,87217,1632965312,807488203,1632965312,799999952
0.010058466,-0.003142326,0.0041537,0.017815567,0.243559732,0.929958093,0.686675734,-1.501148473,187.1487773,87218,1632965313,45268774,1632965313,0
0.003519629,0.003763777,0.00423016,0.01757188,0.24364256,0.929928433,0.686675734,-1.501148473,187.1463228,87219,1632965313,212193965,1632965313,200000047
0.006566793,-0.007662969,0.007537656,0.017663389,0.24367703,0.930081614,0.686675733,-1.501148474,187.1431444,87220,1632965313,410409450,1632965313,400000095
0.006212251,-0.00352328,0.006461411,0.017632754,0.243709155,0.929989905,0.686675732,-1.501148474,187.1398893,87221,1632965313,612372159,1632965313,599999904
0.003705257,-0.002919205,0.00750714,0.017632802,0.243740008,0.930039715,0.686675732,-1.501148475,187.1366693,87222,1632965313,806492328,1632965313,799999952
-9.74E-05,-0.003159814,0.009289033,0.017878321,0.24368499,0.930077424,0.686675731,-1.501148475,187.1335619,87223,1632965314,49379110,1632965314,0
0.001475043,-0.005534013,0.006832411,0.017887652,0.243696726,0.930093853,0.686675731,-1.501148476,187.1440956,87224,1632965314,213576316,1632965314,200000047
-1.04E-05,-0.008964773,0.003366185,0.017899185,0.243704336,0.930067062,0.68667573,-1.501148477,187.1569407,87225,1632965314,411968469,1632965314,400000095
-0.004155855,-0.006469586,0.003319088,0.017674959,0.243750486,0.930034846,0.686675729,-1.501148478,187.1699101,87226,1632965314,607665538,1632965314,599999904
-0.002943231,-0.009903928,0.002617645,0.017582992,0.243793779,0.930013718,0.686675728,-1.501148478,187.1828056,87227,1632965314,807208776,1632965314,799999952
-0.0086944,-0.006504138,-0.001047067,0.017585224,0.243820903,0.929994422,0.686675727,-1.501148479,187.1956862,87228,1632965315,41415691,1632965315,0
-0.000918014,-0.007328902,-9.78E-05,0.01767386,0.243793025,0.929997851,0.686675727,-1.501148479,187.1990836,87229,1632965315,207785844,1632965315,200000047
-0.009276571,-0.00341485,0.000419941,0.01795114,0.243759335,0.930143771,0.686675727,-1.501148479,187.200874,87230,1632965315,407565355,1632965315,400000095
-0.003951746,-0.006664718,-0.000342763,0.017544992,0.243797869,0.930029818,0.686675727,-1.501148478,187.2026374,87231,1632965315,613082885,1632965315,599999904
-0.009018088,-0.002584703,-4.61E-06,0.017931522,0.243789885,0.930135872,0.686675727,-1.501148478,187.2044583,87232,1632965315,806281089,1632965315,799999952
-0.005195169,-0.00396343,0.000732531,0.017630358,0.24379242,0.930000973,0.686675727,-1.501148478,187.2062004,87233,1632965316,43287992,1632965316,0
-0.006611124,-0.001434717,-0.00021767,0.01783262,0.243771587,0.930063874,0.686675727,-1.501148477,187.2083546,87234,1632965316,212609529,1632965316,200000047
-0.005990489,-0.000675837,0.000319986,0.017704737,0.243748765,0.929978724,0.686675727,-1.501148477,187.2105532,87235,1632965316,410640954,1632965316,400000095
-0.00285415,-0.000836973,0.000687515,0.017575628,0.243750171,0.929925953,0.686675727,-1.501148476,187.2126457,87236,1632965316,607468605,1632965316,599999904
-0.008293522,0.004534874,0.000157723,0.017997551,0.243735913,0.930138147,0.686675727,-1.501148476,187.214818,87237,1632965316,806501865,1632965316,799999952
-0.003232488,0.000809447,0.000387226,0.017569306,0.243746467,0.929951428,0.686675727,-1.501148475,187.2169148,87238,1632965317,43854713,1632965317,0
-0.007683631,0.002242523,0.001660117,0.017905414,0.24374663,0.930112849,0.686675726,-1.501148476,187.2155917,87239,1632965317,210337877,1632965317,200000047
-0.006444872,-0.000307298,0.002046087,0.017538474,0.243785722,0.929955746,0.686675726,-1.501148476,187.2136964,87240,1632965317,409787178,1632965317,400000095
-0.009347354,-0.000462148,0.002439773,0.017972901,0.243768265,0.930132709,0.686675725,-1.501148477,187.2118127,87241,1632965317,611664295,1632965317,599999904
-0.010274416,-0.002518333,0.003631428,0.017660654,0.243788552,0.929981647,0.686675724,-1.501148478,187.2099127,87242,1632965317,805759906,1632965317,799999952
-0.010717895,-0.004375685,0.003983448,0.017841052,0.243796059,0.930036152,0.686675723,-1.501148479,187.207985,87243,1632965318,40340185,1632965318,0
-0.010850825,-0.00415063,0.002890805,0.017767904,0.243792201,0.93001356,0.686675724,-1.501148479,187.2160009,87244,1632965318,212579488,1632965318,200000047
-0.008658787,-0.004926021,0.000822531,0.017676728,0.24378082,0.929976205,0.686675724,-1.50114848,187.2256893,87245,1632965318,406290531,1632965318,400000095
-0.009126746,-0.004253954,-0.000163903,0.017828814,0.2437626,0.9300298,0.686675725,-1.50114848,187.2351471,87246,1632965318,608830451,1632965318,599999904
-0.00529134,-0.008313858,0.00010157,0.017435694,0.24376605,0.929819005,0.686675726,-1.501148481,187.2450816,87247,1632965318,804977178,1632965318,799999952
-0.009375132,-0.0061493,-0.004826728,0.017980704,0.243720779,0.93001091,0.686675726,-1.501148482,187.2547944,87248,1632965319,44442415,1632965319,0
-0.002224034,-0.007611582,-0.003418276,0.017624811,0.243733107,0.929877485,0.686675727,-1.501148481,187.2618507,87249,1632965319,212446928,1632965319,200000047
-0.002946538,-0.002994461,-0.001581415,0.017862876,0.243699338,0.930015549,0.686675727,-1.50114848,187.2684534,87250,1632965319,412384033,1632965319,400000095
0.006384878,-0.005567156,-0.006005247,0.017617672,0.243696536,0.929899743,0.686675727,-1.50114848,187.2749399,87251,1632965319,608215332,1632965319,599999904
-0.00773842,0.004431205,-0.003712621,0.017400756,0.243683256,0.929893691,0.686675727,-1.501148479,187.2816617,87252,1632965319,807605504,1632965319,799999952
-0.000345531,-0.00105386,-0.006772175,0.017639642,0.243661193,0.930086058,0.686675728,-1.501148478,187.2883246,87253,1632965320,44633626,1632965320,0
-0.001164419,-0.001189014,-0.006624225,0.017464691,0.243671853,0.929870687,0.686675727,-1.501148478,187.2868396,87254,1632965320,211129426,1632965320,200000047
-0.007704525,0.003898176,-0.005641114,0.017818973,0.243653451,0.930025683,0.686675726,-1.501148478,187.2839158,87255,1632965320,406119823,1632965320,400000095
-0.00559661,-0.001242773,-0.005808585,0.01760098,0.243686325,0.92985983,0.686675725,-1.501148478,187.2810876,87256,1632965320,607677221,1632965320,599999904
-0.00669197,4.50E-05,-0.001848499,0.01819601,0.243737055,0.930080188,0.686675725,-1.501148478,187.2781492,87257,1632965320,808066606,1632965320,799999952
-0.007080816,-0.000247537,-0.002978133,0.017494261,0.243708232,0.92984675,0.686675724,-1.501148478,187.275351,87258,1632965321,39010763,1632965321,0
-0.009095974,0.001899004,-0.002676845,0.01802812,0.243698878,0.930100077,0.686675723,-1.501148477,187.2779907,87259,1632965321,212822198,1632965321,200000047
-0.008076225,0.001026644,-0.003329409,0.017523014,0.243693879,0.929857797,0.686675723,-1.501148476,187.2817557,87260,1632965321,412953376,1632965321,400000095
-0.011133306,0.005183215,-0.002737017,0.018010954,0.243646618,0.930060077,0.686675722,-1.501148475,187.2854433,87261,1632965321,609870433,1632965321,599999904
-0.007955599,0.005182923,-0.003391531,0.017582394,0.243653517,0.929892492,0.686675722,-1.501148475,187.2891823,87262,1632965321,807141542,1632965321,799999952
-0.009851402,0.008590439,-0.00476036,0.018019155,0.243637555,0.930105072,0.686675722,-1.501148474,187.292904,87263,1632965322,84296226,1632965322,0
-0.010347155,0.005935464,-0.003119914,0.01761716,0.243670957,0.929952981,0.686675721,-1.501148476,187.295072,87264,1632965322,214320659,1632965322,200000047
-0.012239944,0.001601545,-0.003761769,0.017780423,0.243715664,0.930000252,0.68667572,-1.501148477,187.2971694,87265,1632965322,408491373,1632965322,400000095
-0.015789802,-0.000162678,-0.003518647,0.018055209,0.243721556,0.930128444,0.686675719,-1.501148479,187.2992418,87266,1632965322,607227563,1632965322,599999904
-0.016245814,-0.003786314,-0.00341081,0.017562549,0.243768168,0.929893885,0.686675718,-1.501148481,187.3013168,87267,1632965322,806040287,1632965322,799999952
-0.019220712,-0.006060582,-0.002760346,0.018053937,0.24376007,0.930146655,0.686675717,-1.501148483,187.3033933,87268,1632965323,47330141,1632965323,0
-0.016771531,-0.004700438,-0.002871699,0.017569524,0.243776504,0.929980019,0.686675718,-1.501148483,187.3031513,87269,1632965323,211056470,1632965323,200000047
-0.013872526,-0.001961296,-0.002605067,0.018159233,0.24371366,0.930220487,0.686675719,-1.501148481,187.3024034,87270,1632965323,410504579,1632965323,400000095
-0.01202145,0.001168982,-0.002050474,0.017716618,0.243688763,0.930013485,0.68667572,-1.50114848,187.3017061,87271,1632965323,607206583,1632965323,599999904
-0.010256869,0.002673806,-0.002277257,0.018062523,0.243660683,0.930153101,0.686675721,-1.501148479,187.3009798,87272,1632965323,813526630,1632965323,799999952
-0.007536427,0.004684678,-0.002751155,0.017950345,0.243634541,0.930072204,0.686675723,-1.501148477,187.3002794,87273,1632965324,39676666,1632965324,0
-0.007601819,0.002621927,-0.003284452,0.01788656,0.243656596,0.930049837,0.686675723,-1.501148478,187.3025565,87274,1632965324,210738182,1632965324,200000047
-0.006411932,0.002737766,-0.000722478,0.017957834,0.243667912,0.930070311,0.686675723,-1.501148478,187.3055078,87275,1632965324,411076068,1632965324,400000095
-0.006658409,0.003211459,-0.000738785,0.017864215,0.243667245,0.930075778,0.686675724,-1.501148479,187.3084061,87276,1632965324,606727361,1632965324,599999904
-0.003147994,0.000353798,-0.002211313,0.017822324,0.243661932,0.930080047,0.686675724,-1.50114848,187.3112219,87277,1632965324,807229518,1632965324,799999952
-0.005505008,0.004789364,-0.001158677,0.017663283,0.243675612,0.930005002,0.686675725,-1.50114848,187.314141,87278,1632965325,39844512,1632965325,0
-0.000546452,-0.000844632,-2.28E-05,0.017795469,0.243682087,0.930022954,0.686675725,-1.501148481,187.3145337,87279,1632965325,211515903,1632965325,200000047
-0.004572525,0.003224974,-0.000631748,0.017548934,0.243713483,0.929859989,0.686675725,-1.501148481,187.314589,87280,1632965325,409892082,1632965325,400000095
0.000174178,-0.000750824,0.000147164,0.017547996,0.243673535,0.929784699,0.686675725,-1.501148482,187.3145553,87281,1632965325,607120275,1632965325,599999904
-0.008048933,0.004792049,0.000749349,0.017207055,0.243697382,0.92971386,0.686675725,-1.501148482,187.314589,87282,1632965325,809984922,1632965325,799999952
0.00097613,-0.003311075,-0.000382884,0.017901527,0.243697367,0.930049177,0.686675725,-1.501148483,187.314453,87283,1632965326,39798498,1632965326,0
-0.005788895,0.000495493,0.000972482,0.016867828,0.243755381,0.929506523,0.686675725,-1.501148484,187.3251762,87284,1632965326,210921287,1632965326,200000047
-0.006677477,-0.00019574,-2.08E-05,0.018116644,0.243703406,0.930173598,0.686675725,-1.501148485,187.3376162,87285,1632965326,414075851,1632965326,400000095
-0.001966835,-0.005060282,-0.002254853,0.017456152,0.243727436,0.929878666,0.686675725,-1.501148486,187.3500933,87286,1632965326,608330488,1632965326,599999904
-0.005942305,-0.00395581,-0.003807483,0.017919868,0.243730211,0.930147074,0.686675725,-1.501148488,187.3622633,87287,1632965326,807006835,1632965326,799999952
-0.002970977,-0.007797513,-0.004386171,0.017425971,0.243750732,0.929830319,0.686675725,-1.501148489,187.3750397,87288,1632965327,53580522,1632965327,0
-0.007015204,-0.005127073,-0.003807158,0.017694198,0.243735692,0.929911205,0.686675726,-1.501148489,187.3782198,87289,1632965327,210195541,1632965327,200000047
-0.00275546,-0.008413373,-0.005103366,0.017152393,0.243735615,0.929590949,0.686675726,-1.50114849,187.3797547,87290,1632965327,410469293,1632965327,400000095
-0.009897994,-0.000912005,-0.004316334,0.017852938,0.243714317,0.929993297,0.686675726,-1.50114849,187.3812146,87291,1632965327,606448173,1632965327,599999904
0.000647013,-0.010271463,-0.004330802,0.017637371,0.243716188,0.929868301,0.686675727,-1.50114849,187.382718,87292,1632965327,807064533,1632965327,799999952
-0.006975755,-0.003124825,-0.005002665,0.017898766,0.243725441,0.930027593,0.686675727,-1.501148491,187.3842136,87293,1632965328,43933868,1632965328,0
0.001272137,-0.010326245,-0.003533724,0.017687778,0.243712182,0.929904628,0.686675727,-1.50114849,187.3655798,87294,1632965328,209566354,1632965328,200000047
-0.008109912,-0.002422747,0.001744852,0.01789247,0.24371247,0.930027953,0.686675727,-1.50114849,187.3441282,87295,1632965328,414648294,1632965328,400000095
-0.005619067,-0.005609631,0.002945384,0.016714126,0.243743268,0.929518861,0.686675727,-1.50114849,187.3216983,87296,1632965328,607580184,1632965328,599999904
-0.002205909,-0.005366847,0.003451968,0.017622817,0.243691896,0.929939468,0.686675727,-1.50114849,187.2996236,87297,1632965328,813231706,1632965328,799999952
-0.005519397,-0.004479921,0.008190907,0.016766179,0.243729847,0.929545054,0.686675726,-1.50114849,187.2775431,87298,1632965329,39977073,1632965329,0
-0.006454579,-0.000827536,0.007301159,0.017825511,0.243687704,0.930070548,0.686675727,-1.50114849,187.2804535,87299,1632965329,209747791,1632965329,200000047
0.003155735,-0.006601648,0.007826331,0.016910587,0.243686307,0.929498679,0.686675728,-1.50114849,187.2875126,87300,1632965329,411679267,1632965329,400000095
-0.006013337,0.002672747,0.004135643,0.016727044,0.243700682,0.929401378,0.686675729,-1.50114849,187.2949439,87301,1632965329,607032775,1632965329,599999904
-2.22E-05,-0.001308774,0.003958203,0.017837888,0.243650963,0.929945699,0.68667573,-1.50114849,187.3020098,87302,1632965329,807396888,1632965329,799999952
0.008728169,-0.007918917,0.006782791,0.016820443,0.24365357,0.929476681,0.686675731,-1.50114849,187.3091968,87303,1632965330,43303251,1632965330,0
-0.002614228,0.006682106,0.003635736,0.016567844,0.243662553,0.929365359,0.686675731,-1.501148489,187.3040145,87304,1632965330,208082914,1632965330,200000047
0.008780774,-0.000660098,0.005944825,0.018617723,0.243608636,0.930395322,0.686675731,-1.501148488,187.2967132,87305,1632965330,410006523,1632965330,400000095
0.00046177,0.005340986,0.008887788,0.016504246,0.243642901,0.929368099,0.686675731,-1.501148488,187.2892453,87306,1632965330,607655525,1632965330,599999904
0.008102514,-0.000737835,0.005778199,0.017820557,0.243622629,0.930133673,0.686675731,-1.501148487,187.2818773,87307,1632965330,806801319,1632965330,799999952
0.00285115,0.00692389,0.008576895,0.016180748,0.243611724,0.929214221,0.686675732,-1.501148486,187.2744079,87308,1632965331,46690225,1632965331,0
0.006204577,-0.001704394,0.006553754,0.017443586,0.243629972,0.929925954,0.686675731,-1.501148486,187.2812567,87309,1632965331,213195800,1632965331,200000047
-0.002843349,0.007520938,0.006050168,0.016431948,0.243634437,0.929259543,0.68667573,-1.501148486,187.2902525,87310,1632965331,412441253,1632965331,400000095
-0.001474713,0.005460519,0.007549003,0.017761441,0.243620811,0.930056887,0.686675728,-1.501148486,187.2996069,87311,1632965331,614232301,1632965331,599999904
0.002238383,0.003095395,0.00403238,0.016582191,0.243676912,0.929410874,0.686675727,-1.501148486,187.3087599,87312,1632965331,813610553,1632965331,799999952
-0.012985057,0.014924282,0.003736872,0.017649764,0.243658978,0.930106739,0.686675726,-1.501148486,187.3177888,87313,1632965332,48642396,1632965332,0
0.00044485,0.000128114,0.00433502,0.018165921,0.243634391,0.930304982,0.686675726,-1.501148487,187.3175794,87314,1632965332,209765911,1632965332,200000047
-0.010961853,0.008815092,0.003242356,0.016920723,0.243644843,0.929578199,0.686675726,-1.501148487,187.3157636,87315,1632965332,414859771,1632965332,400000095
-0.003722333,0.004165161,0.004407624,0.01881375,0.243624619,0.930467742,0.686675726,-1.501148487,187.3138973,87316,1632965332,609657764,1632965332,599999904
-0.004287377,0.004317178,0.00791726,0.018690438,0.243649933,0.9306071,0.686675726,-1.501148487,187.3121272,87317,1632965332,814307212,1632965332,799999952
0.007914925,-0.004347165,0.005480699,0.018238515,0.243653775,0.930358626,0.686675727,-1.501148488,187.310318,87318,1632965333,43685197,1632965333,0
-0.005820182,0.002976258,0.000652017,0.017299603,0.243713685,0.929999109,0.686675728,-1.501148488,187.3237369,87319,1632965333,210249662,1632965333,200000047
-0.000843726,-0.002886518,0.002688193,0.017402525,0.243706392,0.929914856,0.686675729,-1.501148488,187.3390914,87320,1632965333,411598682,1632965333,400000095
-0.007469649,0.002250427,0.001668627,0.018829087,0.2435883,0.930443078,0.68667573,-1.501148488,187.3545853,87321,1632965333,606379032,1632965333,599999904
0.002447416,-0.002833072,-0.002720915,0.017003947,0.243648058,0.929611496,0.686675731,-1.501148488,187.370075,87322,1632965333,814312219,1632965333,799999952
-0.000748021,0.002604332,-0.001967042,0.018753195,0.243564275,0.930408139,0.686675732,-1.501148488,187.3850989,87323,1632965334,41804552,1632965334,0
-0.00140602,0.003882949,-0.004070337,0.01718926,0.24360271,0.929765377,0.686675732,-1.501148489,187.4010469,87324,1632965334,209800481,1632965334,200000047
-0.005693526,0.001867282,-0.006949109,0.0183525,0.24359134,0.930234189,0.686675732,-1.501148489,187.4168541,87325,1632965334,412264108,1632965334,400000095
-0.003002886,0.001174715,-0.008732538,0.019201227,0.243533297,0.930531475,0.686675733,-1.50114849,187.4326545,87326,1632965334,607055425,1632965334,599999904
-3.47E-05,0.003007722,-0.00950902,0.019008779,0.24355105,0.930552606,0.686675733,-1.50114849,187.4485606,87327,1632965334,814849138,1632965334,799999952
0.016740295,-0.008876369,-0.012692199,0.01876676,0.243582858,0.930506138,0.686675733,-1.501148491,187.4641727,87328,1632965335,44815301,1632965335,0
0.001666932,0.003358124,-0.009312714,0.016740393,0.243647218,0.929657971,0.686675733,-1.501148491,187.4663359,87329,1632965335,209812402,1632965335,200000047
0.001816263,9.88E-05,-0.013284403,0.018801443,0.243611359,0.930591116,0.686675731,-1.501148491,187.4655956,87330,1632965335,410197257,1632965335,400000095
0.001151907,-0.002267344,-0.010720149,0.017011535,0.243665649,0.929753973,0.68667573,-1.501148491,187.4649316,87331,1632965335,606287956,1632965335,599999904
-0.00651109,0.002917998,-0.010173294,0.018885982,0.243646317,0.930545356,0.686675729,-1.501148491,187.4641618,87332,1632965335,806153774,1632965335,799999952
-0.007659305,0.001021391,-0.009944949,0.018436871,0.243669989,0.930266157,0.686675728,-1.501148491,187.4634792,87333,1632965336,43431520,1632965336,0
-0.008270404,0.000514571,-0.010402853,0.019747909,0.243692468,0.930735913,0.686675728,-1.501148491,187.4653968,87334,1632965336,209222793,1632965336,200000047
-0.004916003,-0.001210295,-0.008452497,0.02011024,0.24367521,0.930866638,0.686675729,-1.501148492,187.4679281,87335,1632965336,407342672,1632965336,400000095
0.000210548,-0.005811713,-0.010435373,0.019562327,0.243636376,0.930707924,0.68667573,-1.501148492,187.4706202,87336,1632965336,607294559,1632965336,599999904
-0.001090569,-0.002684942,-0.011986726,0.020946342,0.243659879,0.931198441,0.686675731,-1.501148492,187.4732126,87337,1632965336,807565450,1632965336,799999952
0.013066269,-0.014056586,-0.009673075,0.017130899,0.243639368,0.929759557,0.686675732,-1.501148493,187.4760676,87338,1632965337,54264783,1632965337,0
-0.013365741,0.007857874,-0.00973058,0.019947871,0.243590647,0.931012879,0.686675732,-1.501148493,187.4746957,87339,1632965337,209356546,1632965337,200000047
0.017738364,-0.010298384,-0.009757525,0.017805775,0.243645875,0.930165659,0.686675732,-1.501148492,187.4728184,87340,1632965337,411363363,1632965337,400000095
-0.00288229,0.00620572,-0.007865294,0.018925676,0.243584348,0.930597951,0.686675732,-1.501148491,187.4709831,87341,1632965337,610539913,1632965337,599999904
0.01311083,-0.006766185,-0.007766454,0.018562985,0.243620098,0.930421706,0.686675732,-1.501148491,187.4689571,87342,1632965337,806316137,1632965337,799999952
-0.000779834,-0.000341358,-0.007742043,0.01858632,0.243564964,0.930428729,0.686675732,-1.50114849,187.4670422,87343,1632965338,41969299,1632965338,0
0.011773063,-0.006530313,-0.009863008,0.018708074,0.243560148,0.930505375,0.686675731,-1.501148489,187.4711277,87344,1632965338,209388256,1632965338,200000047
-0.003221995,0.006546159,-0.009849467,0.017528314,0.243581783,0.930003511,0.68667573,-1.501148488,187.47622,87345,1632965338,407350301,1632965338,400000095
0.006929795,-0.001756948,-0.009410842,0.018603405,0.24355859,0.930523208,0.686675729,-1.501148487,187.481183,87346,1632965338,610197067,1632965338,599999904
-0.004486613,0.008450391,-0.009647035,0.018066703,0.243594169,0.930298018,0.686675728,-1.501148486,187.4863341,87347,1632965338,807098865,1632965338,799999952
0.002220948,0.004142156,-0.011644834,0.018407427,0.243563655,0.93050888,0.686675727,-1.501148485,187.4913749,87348,1632965339,46062707,1632965339,0
0.001857849,0.006672195,-0.012030148,0.018280046,0.243591365,0.930446596,0.686675727,-1.501148486,187.4943495,87349,1632965339,210148334,1632965339,200000047
-0.002162814,0.006457927,-0.011163933,0.017839793,0.243595437,0.930232135,0.686675727,-1.501148486,187.4969691,87350,1632965339,412355661,1632965339,400000095
-0.003211027,0.005191384,-0.00933601,0.018354359,0.243578089,0.930401287,0.686675727,-1.501148486,187.4995927,87351,1632965339,613434076,1632965339,599999904
-0.00195533,0.002551877,-0.011873604,0.017947754,0.243606839,0.930186656,0.686675727,-1.501148487,187.5022975,87352,1632965339,809752941,1632965339,799999952
-0.002126818,0.002228863,-0.012366018,0.01822577,0.243613244,0.930303216,0.686675726,-1.501148487,187.5050215,87353,1632965340,41799545,1632965340,0
-0.000472078,0.001362455,-0.010919702,0.018023501,0.243606413,0.930211616,0.686675726,-1.501148487,187.5037017,87354,1632965340,213101863,1632965340,200000047
-0.001699434,0.002325001,-0.010538513,0.018173976,0.243605973,0.930310721,0.686675727,-1.501148487,187.5017484,87355,1632965340,412603139,1632965340,400000095
0.00062014,0.00128539,-0.010525046,0.018087638,0.243583484,0.93025825,0.686675727,-1.501148486,187.4999389,87356,1632965340,609125375,1632965340,599999904
-0.000880516,0.003923139,-0.009265904,0.018150403,0.243586871,0.930322281,0.686675727,-1.501148486,187.497948,87357,1632965340,809933662,1632965340,799999952
0.001263482,0.002350672,-0.009499411,0.01807022,0.243592085,0.930275784,0.686675727,-1.501148486,187.4960899,87358,1632965341,43927669,1632965341,0
-0.001378137,0.003757422,-0.009845674,0.018138385,0.243592249,0.930321104,0.686675727,-1.501148486,187.5004211,87359,1632965341,212514877,1632965341,200000047
0.000331793,0.000913577,-0.010503315,0.018029601,0.243613136,0.930274656,0.686675726,-1.501148486,187.5060075,87360,1632965341,412100315,1632965341,400000095
-0.002725437,0.002475261,-0.010576835,0.018155857,0.243599802,0.930356543,0.686675726,-1.501148487,187.5115279,87361,1632965341,612617492,1632965341,599999904
-0.000402775,0.000155635,-0.011153456,0.018014699,0.243603692,0.930288787,0.686675725,-1.501148487,187.5170685,87362,1632965341,812714099,1632965341,799999952
-0.003493239,0.000878106,-0.012004863,0.018194914,0.243624548,0.930369419,0.686675725,-1.501148487,187.5226,87363,1632965342,58650970,1632965342,0
-0.001803349,0.000842603,-0.011554716,0.018015831,0.243621906,0.930287472,0.686675725,-1.501148487,187.5238471,87364,1632965342,213286161,1632965342,200000047
-0.002877645,-0.015925594,-0.012295387,0.017960717,0.243582687,0.929751117,0.686675725,-1.501148487,187.5241956,87365,1632965342,410343885,1632965342,400000095
0.00174923,0.005890424,-0.011516419,0.018313838,0.24417698,0.930327842,0.686675724,-1.501148487,187.5246145,87366,1632965342,609985113,1632965342,599999904
-0.004073705,-0.010373096,-0.012472227,0.016900179,0.244836711,0.930155169,0.686675724,-1.501148487,187.5251697,87367,1632965342,811847925,1632965342,799999952
-0.014939923,-0.007635531,-0.010118119,0.017665737,0.245139997,0.930437836,0.686675724,-1.501148487,187.5257643,87368,1632965343,42002916,1632965343,0
-0.030504427,-0.028685449,-0.009395036,0.017826864,0.246229819,0.930989138,0.686675724,-1.501148487,187.5223356,87369,1632965343,212655305,1632965343,200000047
-0.051783491,-0.055088142,-0.019321232,0.01910745,0.246728157,0.931594814,0.686675723,-1.501148489,187.5185117,87370,1632965343,410468578,1632965343,400000095
-0.065617361,-0.077483759,-0.007451338,0.021321071,0.24699781,0.933015462,0.686675721,-1.501148491,187.514771,87371,1632965343,612650156,1632965343,599999904
-0.041654727,-0.094116246,-0.008640154,0.021026076,0.246265037,0.930376304,0.686675719,-1.501148494,187.510112,87372,1632965343,805440664,1632965343,799999952
-0.077947825,-0.134334837,-0.001303925,0.012152471,0.246620145,0.927029643,0.686675718,-1.501148498,187.5059695,87373,1632965344,44833898,1632965344,0
-0.145387549,-0.191400366,-0.034426288,0.005328635,0.246272255,0.925328235,0.686675714,-1.501148506,187.4998638,87374,1632965344,212422847,1632965344,200000047
-0.181944134,-0.238309881,-0.014801078,0.006747557,0.245583174,0.926709167,0.686675708,-1.501148515,187.4913603,87375,1632965344,410087585,1632965344,400000095
-0.175969222,-0.29317814,-0.002952731,0.004040309,0.246367472,0.924253645,0.686675702,-1.501148527,187.4873058,87376,1632965344,607762813,1632965344,599999904
-0.246666472,-0.280565334,-0.004936116,0.009082972,0.24607182,0.925734221,0.686675695,-1.50114854,187.4803378,87377,1632965344,806617259,1632965344,799999952
-0.210081801,-0.338280451,0.019044554,0.002232019,0.245340796,0.930416233,0.686675688,-1.501148553,187.4724135,87378,1632965345,41419029,1632965345,0
-0.188237379,-0.298055581,-0.017894811,0.001189965,0.245565844,0.929760676,0.686675681,-1.501148566,187.4754054,87379,1632965345,211650371,1632965345,200000047
-0.222852194,-0.330375871,-0.017946269,-0.002706481,0.243294995,0.937279471,0.686675673,-1.501148579,187.4770642,87380,1632965345,413347959,1632965345,400000095
-0.206299865,-0.300171547,-0.038660871,0.006716635,0.240539754,0.950238254,0.686675665,-1.501148592,187.4773752,87381,1632965345,606307268,1632965345,599999904
-0.144407168,-0.294553348,-0.070418282,0.004671124,0.226482132,0.966479663,0.686675658,-1.501148604,187.4869825,87382,1632965345,808360338,1632965345,799999952
-0.104157575,-0.217766945,-0.017469456,0.014321907,0.198593974,0.992189402,0.686675653,-1.501148616,187.4974739,87383,1632965346,44716596,1632965346,0
0.016402089,-0.126143993,-0.013828487,0.007324487,0.177078553,1.013854252,0.686675653,-1.501148621,187.5081231,87384,1632965346,214322090,1632965346,200000047
-0.006559783,-0.072053361,0.006912682,-0.000269873,0.178684886,1.032042328,0.686675653,-1.501148624,187.5070458,87385,1632965346,410506486,1632965346,400000095
-0.016193244,-0.054002419,0.002179241,0.004147988,0.179647051,1.056347756,0.686675653,-1.501148625,187.5056794,87386,1632965346,607427120,1632965346,599999904
0.010208936,-0.06487064,-0.000178332,0.005168305,0.178862747,1.073507334,0.686675654,-1.501148626,187.505486,87387,1632965346,814201831,1632965346,799999952
0.004612227,-0.051710341,0.009040009,0.003579865,0.180768564,1.092007416,0.686675654,-1.501148628,187.5048076,87388,1632965347,46198368,1632965347,0
0.007285242,-0.04451145,-0.002205006,0.004185071,0.182866041,1.109754768,0.686675655,-1.501148629,187.5139362,87389,1632965347,211824417,1632965347,200000047
0.018479994,-0.036520093,-0.005675949,0.003804271,0.181145494,1.126100242,0.686675655,-1.501148631,187.5261926,87390,1632965347,412844181,1632965347,400000095
0.030782814,-0.062674248,-0.013093163,0.002291649,0.17977921,1.146925255,0.686675656,-1.501148633,187.538685,87391,1632965347,610626220,1632965347,599999904
0.028002816,-0.078236044,-0.01723559,0.001245244,0.17619189,1.175535323,0.686675658,-1.501148636,187.5514602,87392,1632965347,811955690,1632965347,799999952
-0.007876864,-0.219404375,-0.005796036,0.000445686,0.172587509,1.213682585,0.686675658,-1.501148641,187.5653559,87393,1632965348,40745496,1632965348,0
-0.042783689,-0.35909122,0.017633156,-0.000599084,0.185467297,1.263155452,0.686675658,-1.501148654,187.5585562,87394,1632965348,207658529,1632965348,200000047
-0.001532681,-0.367546496,-0.002817659,-0.003276501,0.192469916,1.309522905,0.686675657,-1.501148671,187.5525879,87395,1632965348,412283420,1632965348,400000095
-0.002736198,-0.244742501,0.02448848,0.002587035,0.190407057,1.354956722,0.686675658,-1.501148684,187.551934,87396,1632965348,608123064,1632965348,599999904
0.087345668,-0.308437867,-0.054867767,0.00139583,0.182346818,1.414982937,0.686675659,-1.501148696,187.5491918,87397,1632965348,808868169,1632965348,799999952
0.082845495,-0.373730968,-0.04847298,0.006111496,0.176704547,1.494009732,0.686675662,-1.501148711,187.5455688,87398,1632965349,49489498,1632965349,0
0.145699359,-0.413111183,-0.062879769,0.010683832,0.168243495,1.580170798,0.686675665,-1.501148728,187.5549115,87399,1632965349,208117008,1632965349,200000047
0.117946588,-0.383718097,-0.020596635,0.016517909,0.162862844,1.654437997,0.686675668,-1.501148744,187.5631515,87400,1632965349,412256717,1632965349,400000095
0.222618453,-0.379455637,-0.040074722,0.012199473,0.163105056,1.709039335,0.686675672,-1.50114876,187.5682249,87401,1632965349,606838703,1632965349,599999904
0.190202893,-0.397431095,-0.024435471,-0.001939662,0.158232978,1.766452607,0.686675677,-1.501148777,187.5742927,87402,1632965349,807061433,1632965349,799999952
0.216485581,-0.432117867,-0.01479764,-0.005404256,0.159631206,1.838717777,0.686675683,-1.501148795,187.5810999,87403,1632965350,42375087,1632965350,0
0.252741142,-0.426063737,-0.027111854,0.006620146,0.154766743,1.921139135,0.686675691,-1.501148812,187.5890717,87404,1632965350,207920789,1632965350,200000047
